[
    {
      "title": "Fresh Spinach Bundle",
      "description": "1 kg of organic spinach",
      "type": "FreshProduce",
      "quantity": 1,
      "address": "123 Green St",
      "city": "Kolkata",
      "state": "West Bengal",
      "latitude": 22.5726,
      "longitude": 88.3639,
      "expiryDate": "2025-06-20T12:00:00Z"
    },
    {
      "title": "Whole Wheat Bread",
      "description": "Two loaves freshly baked",
      "type": "BakedGoods,Grains_and_Cereals",
      "allergens": "Wheat",
      "quantity": 2,
      "address": "123 Green St",
      "city": "Kolkata",
      "state": "West Bengal",
      "latitude": 22.5735,
      "longitude": 88.3600,
      "expiryDate": "2025-06-18T18:00:00Z"
    },
    {
      "title": "Paneer Cubes",
      "description": "500 g cottage cheese",
      "type": "DairyProducts",
      "allergens": "Milk",
      "quantity": 1,
      "address": "45 Dairy Rd",
      "city": "Howrah",
      "state": "West Bengal",
      "latitude": 22.5958,
      "longitude": 88.2636,
      "expiryDate": "2025-06-19T08:00:00Z"
    },
    {
      "title": "Grilled Chicken Pack",
      "description": "600 g of ready-to-eat grilled chicken",
      "type": "CookedFood,Meat",
      "quantity": 1,
      "address": "45 Dairy Rd",
      "city": "Howrah",
      "state": "West Bengal",
      "latitude": 22.5965,
      "longitude": 88.2650,
      "expiryDate": "2025-06-18T14:00:00Z"
    },
    {
      "title": "Assorted Cookies",
      "description": "Box of 12 assorted diabetic-friendly sweets",
      "type": "Diabetic_Sweets,Non_Diabetic_Sweets",
      "allergens": "Eggs,Wheat",
      "quantity": 1,
      "address": "78 Sweet Ln",
      "city": "Kolkata",
      "state": "West Bengal",
      "latitude": 22.5600,
      "longitude": 88.3700,
      "expiryDate": "2025-06-25T09:00:00Z"
    },
    {
      "title": "Rice & Lentils Combo",
      "description": "5 kg rice, 2 kg lentils",
      "type": "Staple_Foods,Grains_and_Cereals",
      "quantity": 1,
      "address": "78 Sweet Ln",
      "city": "Kolkata",
      "state": "West Bengal",
      "latitude": 22.5590,
      "longitude": 88.3720,
      "expiryDate": "2025-07-01T00:00:00Z"
    },
    {
      "title": "Canned Beans",
      "description": "Pack of 4 canned beans",
      "type": "Processed_and_Packaged",
      "allergens": "Soybeans",
      "quantity": 1,
      "address": "123 Green St",
      "city": "Kolkata",
      "state": "West Bengal",
      "latitude": 22.5710,
      "longitude": 88.3650,
      "expiryDate": "2026-01-01T00:00:00Z"
    },
    {
      "title": "Fresh Salmon Fillet",
      "description": "400 g sea food fillet",
      "type": "Sea_Food",
      "allergens": "Fish",
      "quantity": 1,
      "address": "45 Dairy Rd",
      "city": "Howrah",
      "state": "West Bengal",
      "latitude": 22.5940,
      "longitude": 88.2600,
      "expiryDate": "2025-06-17T20:00:00Z"
    },
    {
      "title": "Chili Powder Jar",
      "description": "100 g ground chili spice",
      "type": "Spices_and_Condiments",
      "quantity": 1,
      "address": "78 Sweet Ln",
      "city": "Kolkata",
      "state": "West Bengal",
      "latitude": 22.5580,
      "longitude": 88.3680,
      "expiryDate": "2027-01-01T00:00:00Z"
    },
    {
      "title": "Mixed Nuts Snack",
      "description": "200 g pack of tree nuts",
      "type": "Snacks",
      "allergens": "Tree_Nuts",
      "quantity": 1,
      "address": "123 Green St",
      "city": "Kolkata",
      "state": "West Bengal",
      "latitude": 22.5730,
      "longitude": 88.3620,
      "expiryDate": "2025-12-01T00:00:00Z"
    },
    {
      "title": "Fruit Juice Bottles",
      "description": "Pack of 6 assorted juices",
      "type": "Beverages",
      "quantity": 1,
      "address": "45 Dairy Rd",
      "city": "Howrah",
      "state": "West Bengal",
      "latitude": 22.5970,
      "longitude": 88.2660,
      "expiryDate": "2025-08-15T00:00:00Z"
    },
    {
      "title": "Instant Noodles",
      "description": "10-pack of quick ramen",
      "type": "Processed_and_Packaged",
      "allergens": "Wheat,Soybeans",
      "quantity": 1,
      "address": "78 Sweet Ln",
      "city": "Kolkata",
      "state": "West Bengal",
      "latitude": 22.5605,
      "longitude": 88.3690,
      "expiryDate": "2026-05-01T00:00:00Z"
    }
  ]
